drugs

       LOCATION: 
           latitude: 52.616105
           longitude: -1.132611
       STREET: 
           id: 1738350
           name: On or near Euston Street
        OUTCOME_STATUS: 
           category: Unable to prosecute suspect
           date: 2023-01

        persistent_id: d8a466f83ff78b4fd9910bb3cb89af152e5dfdde41e67933671879731aad56a8
        id: 107767373
        month: 2023-01

drugs

       LOCATION: 
           latitude: 52.638537
           longitude: -1.128030
       STREET: 
           id: 1738678
           name: On or near Lee Street
        OUTCOME_STATUS: 
           category: Status update unavailable
           date: 2023-05

        persistent_id: a0d0cc05c11d2cdf0171677d41c5c8a6f358c2c786e679ba74f2adc3c5b42f92
        id: 107767676
        month: 2023-01

drugs

       LOCATION: 
           latitude: 52.627433
           longitude: -1.137632
       STREET: 
           id: 1738022
           name: On or near Winifred Street
        OUTCOME_STATUS: 
           category: Court result unavailable
           date: 2023-07

        persistent_id: 909e823e7d6c3d0969b95412d650366702c3d569d9ac69e5979fc5434d0258a8
        id: 107763059
        month: 2023-01

drugs

       LOCATION: 
           latitude: 52.616105
           longitude: -1.132611
       STREET: 
           id: 1738350
           name: On or near Euston Street
        OUTCOME_STATUS: 
           category: Status update unavailable
           date: 2023-05

        persistent_id: f023ffdf15675966090ea45a38376242bd806ce152fe3f3ded576720c90096fc
        id: 107763910
        month: 2023-01

drugs

       LOCATION: 
           latitude: 52.629454
           longitude: -1.148644
       STREET: 
           id: 1737519
           name: On or near Saxon Street
        OUTCOME_STATUS: 
           category: Offender given a caution
           date: 2023-02

        persistent_id: 36e64235bc95a34db2845f6c4b3294f2f4fe7431120d262fd30d11d4ddaa8a7d
        id: 107764673
        month: 2023-01

drugs

       LOCATION: 
           latitude: 52.641230
           longitude: -1.121415
       STREET: 
           id: 1738983
           name: On or near Chester Close
        OUTCOME_STATUS: 
           category: Formal action is not in the public interest
           date: 2023-03

        persistent_id: 25f72edf30644a57764cf5992e9319881799ac969bdaa92ee0949f621dd7466e
        id: 107766085
        month: 2023-01

drugs

       LOCATION: 
           latitude: 52.631193
           longitude: -1.128220
       STREET: 
           id: 1738645
           name: On or near Calais Hill
        OUTCOME_STATUS: 
           category: Status update unavailable
           date: 2023-05

        persistent_id: ce673ae155608444f6215705d645f56c5d89d2137fc2959cc1986a86c7df202b
        id: 107768897
        month: 2023-01

drugs

       LOCATION: 
           latitude: 52.616105
           longitude: -1.132611
       STREET: 
           id: 1738350
           name: On or near Euston Street
        OUTCOME_STATUS: 
           category: Status update unavailable
           date: 2023-05

        persistent_id: 2f2a5b8c56b7e48e475939a17417d31b787304ce7ee019f25f8f483f7e4db30a
        id: 107763920
        month: 2023-01

drugs

       LOCATION: 
           latitude: 52.616105
           longitude: -1.132611
       STREET: 
           id: 1738350
           name: On or near Euston Street
        OUTCOME_STATUS: 
           category: Court result unavailable
           date: 2023-07

        persistent_id: 1f1813dc3757e8692f3aeeccf3b25d6696b65a64ce1e7a617e58435a05f291f3
        id: 107769098
        month: 2023-01

drugs

       LOCATION: 
           latitude: 52.616105
           longitude: -1.132611
       STREET: 
           id: 1738350
           name: On or near Euston Street
        OUTCOME_STATUS: 
           category: Awaiting court outcome
           date: 2024-05

        persistent_id: 2c23b04e4ece4bb04e08d1f048648b25d39c84f723ca68b42f218fc94069f254
        id: 107763614
        month: 2023-01

drugs

       LOCATION: 
           latitude: 52.637556
           longitude: -1.135305
       STREET: 
           id: 1738177
           name: On or near St Peters Lane
        OUTCOME_STATUS: 
           category: Status update unavailable
           date: 2023-05

        persistent_id: d0972cc8a297c11c425f6b7dab52efc313b2ab7a797647dcfe1ba4eec4a5447a
        id: 107766700
        month: 2023-01

drugs

       LOCATION: 
           latitude: 52.638770
           longitude: -1.139035
       STREET: 
           id: 1737933
           name: On or near 
        OUTCOME_STATUS: 
           category: Formal action is not in the public interest
           date: 2023-01

        persistent_id: ec287d90f07bbf565066bcf7393447e6f9069c78cdaa4bd315e011c783f5ee2a
        id: 107767572
        month: 2023-01

drugs

       LOCATION: 
           latitude: 52.632318
           longitude: -1.129483
       STREET: 
           id: 1738584
           name: On or near York Street
        OUTCOME_STATUS: 
           category: Court result unavailable
           date: 2023-09

        persistent_id: 606bbdaaab4f268388dfaa6999a5dea3d3b7c4ff5ff63c9124b1442489b5e763
        id: 107762240
        month: 2023-01

drugs

       LOCATION: 
           latitude: 52.639764
           longitude: -1.132277
       STREET: 
           id: 1738451
           name: On or near Abbey Street
        OUTCOME_STATUS: 
           category: Local resolution
           date: 2023-08

        persistent_id: af535de3bf494a977ff0d9a64433b0ebddf11e097ba3c6d6cf6b410b01ead9c6
        id: 107766122
        month: 2023-01

drugs

       LOCATION: 
           latitude: 52.623681
           longitude: -1.137277
       STREET: 
           id: 1738102
           name: On or near Hazel Street
        OUTCOME_STATUS: 
           category: Investigation complete; no suspect identified
           date: 2023-02

        persistent_id: 7c3a83013faa4330268752adc59d9fb1fd40c35644f12efb39aa2df890d5f12a
        id: 107769028
        month: 2023-01

drugs

       LOCATION: 
           latitude: 52.627016
           longitude: -1.120148
       STREET: 
           id: 1739075
           name: On or near Salisbury Avenue
        OUTCOME_STATUS: 
           category: Investigation complete; no suspect identified
           date: 2023-07

        persistent_id: cf9d33c591fc473e21cdf7f73234c475be121fdcce78c48e95cdb987371e0f95
        id: 107765607
        month: 2023-01

drugs

       LOCATION: 
           latitude: 52.634503
           longitude: -1.149403
       STREET: 
           id: 1737385
           name: On or near Kate Street
        OUTCOME_STATUS: 
           category: Investigation complete; no suspect identified
           date: 2023-07

        persistent_id: b1112aeef67e1f4f59f4a6e9a9b91da7beee824a60d82900fe87f1be60fdf7a7
        id: 107764674
        month: 2023-01

drugs

       LOCATION: 
           latitude: 52.627212
           longitude: -1.141877
       STREET: 
           id: 1737850
           name: On or near Rydal Street
        OUTCOME_STATUS: 
           category: Local resolution
           date: 2023-01

        persistent_id: 1e4d5b04815b51ad70fca30e7fa32bc2cbe5e22423e084ad569cee2fbc542f72
        id: 107768622
        month: 2023-01

drugs

       LOCATION: 
           latitude: 52.628349
           longitude: -1.110769
       STREET: 
           id: 1739483
           name: On or near Roslyn Street
        OUTCOME_STATUS: 
           category: Unable to prosecute suspect
           date: 2023-04

        persistent_id: 8ed8226e16a9ead099aaff025dd61fe2f345db37ae5f46b1665ee81c7a524386
        id: 107770186
        month: 2023-01

drugs

       LOCATION: 
           latitude: 52.640498
           longitude: -1.136799
       STREET: 
           id: 1737983
           name: On or near St Margaret's Street
        OUTCOME_STATUS: 
           category: Local resolution
           date: 2023-06

        persistent_id: c31758bfefd72ec5de3979c0359b2aba99b81a3d64b7a6f9e6253791588f17c9
        id: 107768093
        month: 2023-01

drugs

       LOCATION: 
           latitude: 52.616105
           longitude: -1.132611
       STREET: 
           id: 1738350
           name: On or near Euston Street
        OUTCOME_STATUS: 
           category: Court result unavailable
           date: 2023-07

        persistent_id: 3854caa257589892e475f0f69950a4bf8b7ac7d35dd344da77a197434cd887e9
        id: 107762534
        month: 2023-01

drugs

       LOCATION: 
           latitude: 52.632955
           longitude: -1.140434
       STREET: 
           id: 1737814
           name: On or near Castle Street
        OUTCOME_STATUS: 
           category: Investigation complete; no suspect identified
           date: 2023-02

        persistent_id: bdec4fa9427b93b9eb8a0fb1f97700e4ff45d80a57a49e7ea266b3af28d75e15
        id: 107766562
        month: 2023-01

drugs

       LOCATION: 
           latitude: 52.626898
           longitude: -1.113960
       STREET: 
           id: 1739308
           name: On or near Onslow Street
        OUTCOME_STATUS: 
           category: Court result unavailable
           date: 2024-02

        persistent_id: b58f46a6d94db3d18d6255d56b58cdfd48d192e82d2ef019c000ae47b487d341
        id: 107767808
        month: 2023-01

drugs

       LOCATION: 
           latitude: 52.619036
           longitude: -1.116866
       STREET: 
           id: 1739145
           name: On or near Orlando Road
        OUTCOME_STATUS: 
           category: Local resolution
           date: 2023-02

        persistent_id: 85413557aea5c8b6b7319581b32cb6e50ccff7db7108454f5b7b219cc79aaf41
        id: 107769973
        month: 2023-01

drugs

       LOCATION: 
           latitude: 52.634787
           longitude: -1.139010
       STREET: 
           id: 1737952
           name: On or near 
        OUTCOME_STATUS: 
           category: Local resolution
           date: 2023-01

        persistent_id: 1d309f06575179d50b53b8885e10f68075ee70ff0546e154886bb75494ea73e8
        id: 107763613
        month: 2023-01

drugs

       LOCATION: 
           latitude: 52.616105
           longitude: -1.132611
       STREET: 
           id: 1738350
           name: On or near Euston Street
        OUTCOME_STATUS: 
           category: Local resolution
           date: 2023-01

        persistent_id: 81690ce94679b31e83b89147e3b2a6293db8d510597a074bd3489eaac73d7c8f
        id: 107765881
        month: 2023-01

drugs

       LOCATION: 
           latitude: 52.630948
           longitude: -1.135140
       STREET: 
           id: 1738231
           name: On or near York Road
        OUTCOME_STATUS: 
           category: Unable to prosecute suspect
           date: 2023-01

        persistent_id: d223081e1289530ce4e0a3f9ecfa37bd24e5118b9ae576ed11d42d124aea4336
        id: 107765726
        month: 2023-01

drugs

       LOCATION: 
           latitude: 52.640513
           longitude: -1.128966
       STREET: 
           id: 1738601
           name: On or near Gower Street
        OUTCOME_STATUS: 
           category: Court result unavailable
           date: 2023-07

        persistent_id: a28e69af5c605ea6c949214c8e9df4fdcd6872450a6eedf7dba36c5337d66c6d
        id: 107769919
        month: 2023-01

drugs

       LOCATION: 
           latitude: 52.616105
           longitude: -1.132611
       STREET: 
           id: 1738350
           name: On or near Euston Street
        OUTCOME_STATUS: 
           category: Local resolution
           date: 2023-01

        persistent_id: fc18999fa424fc0cbdd95e4a0d4b26f2774e4d27b62d8eeed821c5005cf0c74d
        id: 107769531
        month: 2023-01

drugs

       LOCATION: 
           latitude: 52.640513
           longitude: -1.128966
       STREET: 
           id: 1738601
           name: On or near Gower Street
        OUTCOME_STATUS: 
           category: Further investigation is not in the public interest
           date: 2023-01

        persistent_id: 68a0fec07de4c2639f1ba5fa91345bd38ba81a9dc5239ff1ba87013586fba80f
        id: 107767870
        month: 2023-01

drugs

       LOCATION: 
           latitude: 52.616105
           longitude: -1.132611
       STREET: 
           id: 1738350
           name: On or near Euston Street
        OUTCOME_STATUS: 
           category: Further investigation is not in the public interest
           date: 2023-01

        persistent_id: 3e1c2f57c1a1d1a74ae0d903f7ee03c8a4b0e6068a544021d4a8bf7bcbe42533
        id: 107767874
        month: 2023-01

drugs

       LOCATION: 
           latitude: 52.616105
           longitude: -1.132611
       STREET: 
           id: 1738350
           name: On or near Euston Street
        OUTCOME_STATUS: 
           category: Offender given a caution
           date: 2023-01

        persistent_id: 77365d273627c095f1fd58621315759bb638fd5fa9c9cd407e365af580834e6c
        id: 107769667
        month: 2023-01

drugs

       LOCATION: 
           latitude: 52.616105
           longitude: -1.132611
       STREET: 
           id: 1738350
           name: On or near Euston Street
        OUTCOME_STATUS: 
           category: Local resolution
           date: 2023-01

        persistent_id: 670d3b80729069a978168450fa0ff84141a941a8ca5f517672d2e8a32293963e
        id: 107762480
        month: 2023-01

drugs

       LOCATION: 
           latitude: 52.640513
           longitude: -1.128966
       STREET: 
           id: 1738601
           name: On or near Gower Street
        OUTCOME_STATUS: 
           category: Court result unavailable
           date: 2023-07

        persistent_id: 23da713c84419f78e5a8d6c0afad5273b6a9dbd05a94489d0a18e09dcc40c335
        id: 107769922
        month: 2023-01

drugs

       LOCATION: 
           latitude: 52.631193
           longitude: -1.128220
       STREET: 
           id: 1738645
           name: On or near Calais Hill
        OUTCOME_STATUS: 
           category: Court result unavailable
           date: 2023-08

        persistent_id: 143b782567fac0834d5866f867d75847693f3572df9f10495180ba0172f37959
        id: 107768667
        month: 2023-01

drugs

       LOCATION: 
           latitude: 52.616105
           longitude: -1.132611
       STREET: 
           id: 1738350
           name: On or near Euston Street
        OUTCOME_STATUS: 
           category: Local resolution
           date: 2023-01

        persistent_id: 75b01a56ecde02a3e95dfa7f875c9bde32db0957f796bf876e4b75bd162e365d
        id: 107769533
        month: 2023-01

drugs

       LOCATION: 
           latitude: 52.636857
           longitude: -1.128211
       STREET: 
           id: 1738642
           name: On or near St James Street
        OUTCOME_STATUS: 
           category: Court result unavailable
           date: 2023-07

        persistent_id: af783b5bce6def80e679e5b89f4e3aa18cff6a8cc53ba7a3a048711d12bd55fe
        id: 107763669
        month: 2023-01

drugs

       LOCATION: 
           latitude: 52.616105
           longitude: -1.132611
       STREET: 
           id: 1738350
           name: On or near Euston Street
        OUTCOME_STATUS: 
           category: Court result unavailable
           date: 2023-07

        persistent_id: 39ad223f61572f3a72e08c2f60f976e3768cface9e28b1f78b17c52cf363c030
        id: 107763261
        month: 2023-01

drugs

       LOCATION: 
           latitude: 52.638387
           longitude: -1.133264
       STREET: 
           id: 1738366
           name: On or near Mansfield Street
        OUTCOME_STATUS: 
           category: Offender given a caution
           date: 2023-01

        persistent_id: 5c64cd8aace7b80103c0f02427bed8099c7cf42cb7a0c63bd11422a7598c534a
        id: 107769261
        month: 2023-01

drugs

       LOCATION: 
           latitude: 52.616105
           longitude: -1.132611
       STREET: 
           id: 1738350
           name: On or near Euston Street
        OUTCOME_STATUS: 
           category: Unable to prosecute suspect
           date: 2023-02

        persistent_id: c32fccbe38fc6fdeef3f647ab0ce4b468716b77b215b7e2f0f20124af277feb6
        id: 107769323
        month: 2023-01

drugs

       LOCATION: 
           latitude: 52.621609
           longitude: -1.113476
       STREET: 
           id: 1739370
           name: On or near Cedars Court
        OUTCOME_STATUS: 
           category: Formal action is not in the public interest
           date: 2023-01

        persistent_id: 2c533e3f289c32a3865ebddae16b796260681836e6856c415ea6a22167617ed2
        id: 107769111
        month: 2023-01

drugs

       LOCATION: 
           latitude: 52.636487
           longitude: -1.150236
       STREET: 
           id: 1737433
           name: On or near Dannett Street
        OUTCOME_STATUS: 
           category: Court result unavailable
           date: 2023-11

        persistent_id: 87390785709737ba75f45c08a51cf81020ff3038e779f02a0abd1b1d3422efd8
        id: 107769864
        month: 2023-01

drugs

       LOCATION: 
           latitude: 52.637791
           longitude: -1.147906
       STREET: 
           id: 1737446
           name: On or near Tudor Road
        OUTCOME_STATUS: 
           category: Local resolution
           date: 2023-01

        persistent_id: 945d5f24449112583d32d3c9ecd5c289aa806ac7d50e78e9a3722bba5e807690
        id: 107768145
        month: 2023-01

drugs

       LOCATION: 
           latitude: 52.629454
           longitude: -1.148644
       STREET: 
           id: 1737519
           name: On or near Saxon Street
        OUTCOME_STATUS: 
           category: Court result unavailable
           date: 2023-11

        persistent_id: dd5b4f6499cde4ccc9fbc84338064b9ed450ae78f441ca6df7de5fa48e85a36b
        id: 107768171
        month: 2023-01

drugs

       LOCATION: 
           latitude: 52.633879
           longitude: -1.132821
       STREET: 
           id: 1738375
           name: On or near Horsefair Street
        OUTCOME_STATUS: 
           category: Local resolution
           date: 2023-01

        persistent_id: 5d2f7a15d30f442dbdb42aa1152b65e8bb0d4c329b97230b540bc47fdb50639f
        id: 107765861
        month: 2023-01

drugs

       LOCATION: 
           latitude: 52.616105
           longitude: -1.132611
       STREET: 
           id: 1738350
           name: On or near Euston Street
        OUTCOME_STATUS: 
           category: Further investigation is not in the public interest
           date: 2024-04

        persistent_id: 0131a8b4adcd98bc9f79018cd34d11d41cf3783fd7c4c4a14b32ca93404b9353
        id: 107767436
        month: 2023-01

drugs

       LOCATION: 
           latitude: 52.623686
           longitude: -1.112341
       STREET: 
           id: 1739361
           name: On or near Ripon Street
        OUTCOME_STATUS: 
           category: Court result unavailable
           date: 2023-10

        persistent_id: a87c4a390adbbca723e9fa3dbd6b51d730404fb0bd0bda75eb0344d9fd1e38ba
        id: 107770101
        month: 2023-01

drugs

       LOCATION: 
           latitude: 52.636281
           longitude: -1.114835
       STREET: 
           id: 1739277
           name: On or near Melbourne Street
        OUTCOME_STATUS: 
           category: Formal action is not in the public interest
           date: 2023-01

        persistent_id: 657c1e9497f8238d4217798946df743a66ead4fd5f09d946992dca4afad5bf4a
        id: 107762907
        month: 2023-01

drugs

       LOCATION: 
           latitude: 52.639223
           longitude: -1.132080
       STREET: 
           id: 1738429
           name: On or near 
        OUTCOME_STATUS: 
           category: Local resolution
           date: 2023-01

        persistent_id: 88a6ae58e5b915821dbea58466ab1c63ed72c4408133e7b1ddced5d8117aea8c
        id: 107768870
        month: 2023-01

drugs

       LOCATION: 
           latitude: 52.626525
           longitude: -1.145081
       STREET: 
           id: 1737691
           name: On or near Sage Road
        OUTCOME_STATUS: 
           category: Court result unavailable
           date: 2023-07

        persistent_id: 21180972f96a624f7e3b6267476bf36e4b4e9c4f8a09ad7e4b64d0b8d1c2f0de
        id: 107765380
        month: 2023-01

drugs

       LOCATION: 
           latitude: 52.625559
           longitude: -1.148380
       STREET: 
           id: 1737478
           name: On or near Sheffield Street
        OUTCOME_STATUS: 
           category: Court result unavailable
           date: 2023-08

        persistent_id: d6a5656337e7d8cfa9817ed1e950b79d19a3e557158fcdb0a8840a2d31dd566b
        id: 107770233
        month: 2023-01

drugs

       LOCATION: 
           latitude: 52.627052
           longitude: -1.140875
       STREET: 
           id: 1737887
           name: On or near Ullswater Street
        OUTCOME_STATUS: 
           category: Investigation complete; no suspect identified
           date: 2023-07

        persistent_id: 636d5d4cbeebcbe935f9aec74cfe42561dca9ae0e8bcfc648656059e95676ba4
        id: 107768556
        month: 2023-01

drugs

       LOCATION: 
           latitude: 52.627432
           longitude: -1.138755
       STREET: 
           id: 1737986
           name: On or near Jarrom Street
        OUTCOME_STATUS: 
           category: Status update unavailable
           date: 2023-05

        persistent_id: 89de18eb21ecbda5bc590c4c10e2487d6b5c7176b78e936975155cc09c05659f
        id: 107768196
        month: 2023-01

drugs

       LOCATION: 
           latitude: 52.631902
           longitude: -1.108703
       STREET: 
           id: 1739585
           name: On or near Park Vale Road
        OUTCOME_STATUS: 
           category: Further investigation is not in the public interest
           date: 2023-06

        persistent_id: a2d5dbcf5436a61252697aacfd5e571bf584afacad893348aa34ac80a05bc84b
        id: 107766788
        month: 2023-01

drugs

       LOCATION: 
           latitude: 52.630061
           longitude: -1.133133
       STREET: 
           id: 1738348
           name: On or near Mill Street
        OUTCOME_STATUS: 
           category: Formal action is not in the public interest
           date: 2023-01

        persistent_id: d46dad9fec7fa3398f4f8f3a563738be72293f1ed6aa4beabf11ff5162dd138f
        id: 107764372
        month: 2023-01

drugs

       LOCATION: 
           latitude: 52.639558
           longitude: -1.132473
       STREET: 
           id: 1738364
           name: On or near 
        OUTCOME_STATUS: 
           category: Local resolution
           date: 2023-01

        persistent_id: 17e7c295a0310a52ae3d8d147f7b94029c4074b378ee7a67a5fb6d99d25228d1
        id: 107765688
        month: 2023-01

drugs

       LOCATION: 
           latitude: 52.631767
           longitude: -1.129155
       STREET: 
           id: 1738612
           name: On or near Dover Street
        OUTCOME_STATUS: 
           category: Court result unavailable
           date: 2023-07

        persistent_id: 04939abf41625b5247c763be6d86d496512c11312fecd93a6854904a7f0181dd
        id: 107768407
        month: 2023-01

drugs

       LOCATION: 
           latitude: 52.616105
           longitude: -1.132611
       STREET: 
           id: 1738350
           name: On or near Euston Street
        OUTCOME_STATUS: 
           category: Court result unavailable
           date: 2023-10

        persistent_id: 9516699f70bd9b308e83978ed1686a8a78a4853d5ea04dab8b82a8855f5367f9
        id: 107767109
        month: 2023-01

drugs

       LOCATION: 
           latitude: 52.616105
           longitude: -1.132611
       STREET: 
           id: 1738350
           name: On or near Euston Street
        OUTCOME_STATUS: 
           category: Court result unavailable
           date: 2023-07

        persistent_id: db20744b2ab07f59f19c5227a13f42cf1321910a76fde84d77626aeba1646a44
        id: 107763257
        month: 2023-01

drugs

       LOCATION: 
           latitude: 52.618023
           longitude: -1.129457
       STREET: 
           id: 1738421
           name: On or near Putney Road
        OUTCOME_STATUS: 
           category: Local resolution
           date: 2023-01

        persistent_id: dc76089bfe8a4153d7322284b835c411f74cf8dd4f3732b2aa623adabe3ce685
        id: 107766267
        month: 2023-01

drugs

       LOCATION: 
           latitude: 52.628923
           longitude: -1.115441
       STREET: 
           id: 1739238
           name: On or near Avon Street
        OUTCOME_STATUS: 
           category: Court result unavailable
           date: 2023-12

        persistent_id: 11f6f2b11b4633b4e04ffb67e2c2d589bb024a231915c9dfeeb08b86577e88c4
        id: 107763841
        month: 2023-01

drugs

       LOCATION: 
           latitude: 52.616105
           longitude: -1.132611
       STREET: 
           id: 1738350
           name: On or near Euston Street
        OUTCOME_STATUS: 
           category: Court result unavailable
           date: 2023-11

        persistent_id: cb151a8acb8ac5345332c9ef24f1a923525df3fcfedf975171e3ce2466601282
        id: 107769212
        month: 2023-01

drugs

       LOCATION: 
           latitude: 52.637697
           longitude: -1.137297
       STREET: 
           id: 1738064
           name: On or near Causeway Lane
        OUTCOME_STATUS: 
           category: Status update unavailable
           date: 2023-05

        persistent_id: e6f149db62a000b30ad99293d63134c88c108b66e2f3131d2a72bcbf72de6e35
        id: 107765813
        month: 2023-01

drugs

       LOCATION: 
           latitude: 52.632901
           longitude: -1.131836
       STREET: 
           id: 1738395
           name: On or near 
        OUTCOME_STATUS: 
           category: Local resolution
           date: 2023-01

        persistent_id: dfcc8d9bd2f09467a3ca186dda3321815c57354e33c5ef1d7361168104650f46
        id: 107762649
        month: 2023-01

drugs

       LOCATION: 
           latitude: 52.637697
           longitude: -1.137297
       STREET: 
           id: 1738064
           name: On or near Causeway Lane
        OUTCOME_STATUS: 
           category: Unable to prosecute suspect
           date: 2023-03

        persistent_id: b4cdb12aecad87a07d272482790af15f1813faf001cbeaef0ce7b8bebd35c8ef
        id: 107765012
        month: 2023-01

drugs

       LOCATION: 
           latitude: 52.634833
           longitude: -1.113475
       STREET: 
           id: 1739349
           name: On or near Duffield Street
        OUTCOME_STATUS: 
           category: Unable to prosecute suspect
           date: 2023-01

        persistent_id: 8c526e74170697214dabe30c209c96a1f3df393ba0de96eb59bac286e222db0c
        id: 107768168
        month: 2023-01

drugs

       LOCATION: 
           latitude: 52.627212
           longitude: -1.141877
       STREET: 
           id: 1737850
           name: On or near Rydal Street
        OUTCOME_STATUS: 
           category: Local resolution
           date: 2024-01

        persistent_id: 6b7fbdfedb1fec7cb3793a2154888d7d46254612a3cd9b6c5a29a4e55fd55bbc
        id: 107768632
        month: 2023-01

drugs

       LOCATION: 
           latitude: 52.629864
           longitude: -1.115038
       STREET: 
           id: 1739236
           name: On or near 
        OUTCOME_STATUS: 
           category: Local resolution
           date: 2023-01

        persistent_id: 1d44901ddf59fc5d869349463a3c06c1afffa76aef987375d1ef95dc119049f1
        id: 107768177
        month: 2023-01

drugs

       LOCATION: 
           latitude: 52.637791
           longitude: -1.147906
       STREET: 
           id: 1737446
           name: On or near Tudor Road
        OUTCOME_STATUS: 
           category: Unable to prosecute suspect
           date: 2023-02

        persistent_id: b251b717aa2fc416143644f76ecb2c2a2fdad005015f5200e7320dce67be0718
        id: 107763708
        month: 2023-01

drugs

       LOCATION: 
           latitude: 52.627137
           longitude: -1.117058
       STREET: 
           id: 1739115
           name: On or near St Albans Road
        OUTCOME_STATUS: 
           category: Local resolution
           date: 2023-01

        persistent_id: 26ea3b4f6c48d1b8280e5c4bb91d6d5a327f7e61aae2ab1ddd024849138f468b
        id: 107765231
        month: 2023-01

drugs

       LOCATION: 
           latitude: 52.627137
           longitude: -1.117058
       STREET: 
           id: 1739115
           name: On or near St Albans Road
        OUTCOME_STATUS: 
           category: Unable to prosecute suspect
           date: 2023-05

        persistent_id: 9bba2adeec9a64e5df21447f5a9943f3827ffc16791bbff708392d86ce8d23aa
        id: 107765474
        month: 2023-01

drugs

       LOCATION: 
           latitude: 52.620491
           longitude: -1.138014
       STREET: 
           id: 1738051
           name: On or near 
        OUTCOME_STATUS: 
           category: Unable to prosecute suspect
           date: 2023-01

        persistent_id: 5f082e89ff6eac77d58bb5cfdcdf5aeb81e46d237e5a4ed3047905ced402061d
        id: 107763903
        month: 2023-01

